[
  {
    "id": 0,
    "name": "Mission Rock Resort",
    "images": [
      {
        "fileName": "san-francisco__mission-rock-resort-2.jpg",
        "type": "patio"
      }
    ],
    "region": "San Francisco",
    "neighborhood": "Potrero",
    "address": {
      "street": "817 Terry A Francois Blvd",
      "city": "San Francisco",
      "state": "CA",
      "zip": 94107
    },
    "position": {
      "lat": 37.765496,
      "lng": -122.386594
    },
    "phone": "(415) 701-7625",
    "hours": [
      {
        "category": "Bottomless Brunch",
        "starts": "10:00AM",
        "ends": "3:00PM",
        "days": [
          "Saturday",
          "Sunday"
        ]
      }
    ],
    "menu_items": [
      {
        "item": "Bottomless Mimosa",
        "price": 20
      }
    ],
    "full_bar": true,
    "links": {
      "website": "www.missionrockresort.com/",
      "facebook": "www.facebook.com/MissionRockResortSF",
      "yelp": "www.yelp.com/biz/mission-rock-resort-san-francisco-2",
      "zomato": "www.zomato.com/san-francisco/mission-rock-resort-potrero"
    },
    "devNotes": "https://sf.eater.com/maps/best-bottomless-brunches-san-francisco"
  },
  {
    "id": 1,
    "name": "District",
    "images": [
      {
        "fileName": "san-francisco__district.jpg",
        "type": "inside"
      }
    ],
    "region": "San Francisco",
    "neighborhood": "SOMA",
    "address": {
      "street": "216 Townsend St",
      "city": "San Francisco",
      "state": "CA",
      "zip": 94107
    },
    "position": {
      "lat": 37.778634,
      "lng": -122.393320
    },
    "phone": "(415) 896-2120",
    "hours": [
      {
        "category": "Bottomless Brunch",
        "starts": "11:00AM",
        "ends": "2:30PM",
        "days": [
          "Saturday",
          "Sunday"
        ]
      }
    ],
    "menu_items": [
      {
        "item": "Bottomless Mimosas",
        "price": 15
      },
      {
        "item": "Bottomless DIY Bloody Mary",
        "price": 15
      },
      {
        "item": "Buffet",
        "price": 20
      }
    ],
    "full_bar": true,
    "links": {
      "website": "www.districtsf.com/locations.html",
      "facebook": "www.facebook.com/districtsf/",
      "yelp": "www.yelp.com/biz/district-san-francisco-3",
      "zomato": "www.zomato.com/san-francisco/district-soma"
    },
    "devNotes": "https://sf.eater.com/maps/best-bottomless-brunches-san-francisco"
  },
  {
    "id": 2,
    "name": "The Keystone",
    "images": [
      {
        "fileName": "san-francisco__the-keystone.jpg",
        "type": "inside"
      }
    ],
    "region": "San Francisco",
    "neighborhood": "SOMA",
    "address": {
      "street": "68 4th St",
      "city": "San Francisco",
      "state": "CA",
      "zip": 94103
    },
    "position": {
      "lat": 37.784881,
      "lng": -122.405061
    },
    "phone": "(415) 777-1200",
    "hours": [
      {
        "category": "Bottomless Brunch",
        "starts": "10:00AM",
        "ends": "2:00PM",
        "days": [
          "Saturday",
          "Sunday"
        ]
      }
    ],
    "menu_items": [
      {
        "item": "Bottomless Mimosa",
        "price": 25
      }
    ],
    "full_bar": true,
    "links": {
      "website": "www.thekeystonesf.com/",
      "facebook": "www.facebook.com/thekeystonesf/",
      "yelp": "www.yelp.com/biz/the-keystone-san-francisco-2",
      "zomato": "www.zomato.com/san-francisco/the-keystone-soma"
    },
    "devNotes": "https://sf.eater.com/maps/best-bottomless-brunches-san-francisco"
  },
  {
    "id": 3,
    "name": "farmerbrown",
    "images": [
      {
        "fileName": "san-francisco__farmerbrown.jpg",
        "type": "inside"
      }
    ],
    "region": "San Francisco",
    "neighborhood": "Civic Center",
    "address": {
      "street": "25 Mason St",
      "city": "San Francisco",
      "state": "CA",
      "zip": 94102
    },
    "position": {
      "lat": 37.783574,
      "lng": -122.409407
    },
    "phone": "(415) 409-3276",
    "hours": [
      {
        "category": "Bottomless Brunch",
        "starts": "10:00AM",
        "ends": "2:30PM",
        "days": [
          "Saturday"
        ]
      },
      {
        "category": "Bottomless Brunch",
        "starts": "9:30AM",
        "ends": "2:30PM",
        "days": [
          "Sunday"
        ]
      }
    ],
    "menu_items": [
      {
        "item": "Bottomless Mimosa",
        "price": 20
      }
    ],
    "full_bar": true,
    "links": {
      "website": "www.farmerbrownsf.com/",
      "facebook": "www.facebook.com/farmerbrownsf/",
      "yelp": "www.yelp.com/biz/farmerbrown-san-francisco-2",
      "openTable": "www.opentable.com/farmer-brown",
      "tripAdvisor": "www.tripadvisor.com/Restaurant_Review-g60713-d860472-Reviews-Farmerbrown-San_Francisco_California.html",
      "zomato": "www.zomato.com/san-francisco/farmerbrown-civic-center"
    },
    "devNotes": "https://sf.eater.com/maps/best-bottomless-brunches-san-francisco"
  },
  {
    "id": 4,
    "name": "Colibri Mexican Bistro",
    "images": [
      {
        "fileName": "san-francisco__colibri-mexican-bistro.jpg",
        "type": "inside"
      }
    ],
    "region": "San Francisco",
    "neighborhood": "Union Square",
    "address": {
      "street": "438 Geary St",
      "city": "San Francisco",
      "state": "CA",
      "zip": 94102
    },
    "position": {
      "lat": 37.787257,
      "lng": -122.410539
    },
    "phone": "(415) 440-2737",
    "hours": [
      {
        "category": "Bottomless Brunch",
        "starts": "10:30AM",
        "ends": "2:00PM",
        "days": [
          "Saturday",
          "Sunday"
        ]
      }
    ],
    "menu_items": [
      {
        "item": "Bottomless Mimosa",
        "price": 10
      }
    ],
    "full_bar": true,
    "links": {
      "website": "www.colibrimexicanbistro.com/",
      "facebook": "www.facebook.com/ColibriSF/",
      "yelp": "www.yelp.com/biz/colibri-mexican-bistro-san-francisco",
      "openTable": "www.opentable.com/r/colibri-mexican-bistro-san-francisco",
      "tripAdvisor": "www.tripadvisor.com/Restaurant_Review-g60713-d614164-Reviews-Colibri_Mexican_Bistro-San_Francisco_California.html",
      "zagat": "www.zagat.com/r/colibri-mexican-bistro-san-francisco",
      "zomato": "www.zomato.com/san-francisco/colibri-mexican-bistro-union-square"
    }
  },
  {
    "id": 5,
    "name": "Kitchen Story",
    "images": [
      {
        "fileName": "san-francisco_kitchen-story.png",
        "type": "inside"
      }
    ],
    "region": "San Francisco",
    "neighborhood": "Castro",
    "address": {
      "street": "3499 16th St",
      "city": "San Francisco",
      "state": "CA",
      "zip": 94114
    },
    "position": {
      "lat": 37.764182,
      "lng": -122.430673
    },
    "phone": "(415) 525-4905",
    "hours": [
      {
        "category": "Bottomless Brunch",
        "starts": "8:00AM",
        "ends": "3:00PM",
        "days": [
          "Saturday",
          "Sunday"
        ]
      }
    ],
    "menu_items": [
      {
        "item": "Bottomless Mimosa",
        "price": 19
      }
    ],
    "full_bar": false,
    "links": {
      "website": "www.kitchenstorysf.com/",
      "facebook": "www.facebook.com/KitchenStorySF/",
      "yelp": "www.yelp.com/biz/kitchen-story-san-francisco",
      "openTable": "www.opentable.com/kitchen-story",
      "tripAdvisor": "www.tripadvisor.com/Restaurant_Review-g60713-d3865082-Reviews-Kitchen_Story-San_Francisco_California.html",
      "zagat": "www.zagat.com/r/kitchen-story-san-francisco",
      "zomato": "www.zomato.com/san-francisco/kitchen-story-castro"
    }
  },
  {
    "id": 6,
    "name": "1300 on Fillmore",
    "images": [
      {
        "fileName": "san-francisco__1300-on-fillmore.jpg",
        "type": "inside"
      }
    ],
    "region": "San Francisco",
    "neighborhood": "Western Addition",
    "address": {
      "street": "1300 Fillmore St",
      "city": "San Francisco",
      "state": "CA",
      "zip": 94115
    },
    "position": {
      "lat": 37.781588,
      "lng": -122.432137
    },
    "phone": "(415) 771-7100",
    "hours": [
      {
        "category": "Bottomless Brunch",
        "starts": "11:00AM",
        "ends": "3:00PM",
        "days": [
          "Saturday",
          "Sunday"
        ]
      }
    ],
    "menu_items": [
      {
        "item": "Bottomless Bellini",
        "price": 15
      }
    ],
    "full_bar": true,
    "links": {
      "website": "www.1300fillmore.com/",
      "facebook": "www.facebook.com/1300Fillmore/?rf=342306949166549",
      "yelp": "www.yelp.com/biz/1300-on-fillmore-san-francisco",
      "openTable": "www.opentable.com/1300-on-fillmore",
      "tripAdvisor": "www.tripadvisor.com/Restaurant_Review-g60713-d776388-Reviews-1300_Fillmore-San_Francisco_California.html",
      "zagat": "www.zagat.com/r/1300-on-fillmore-san-francisco",
      "zomato": "www.zomato.com/san-francisco/1300-on-fillmore-western-addition"
    },
    "description": "Seatings at 11am and 1pm"
  },
  {
    "id": 7,
    "name": "Stock in Trade",
    "images": [
      {
        "fileName": "san-francisco__stock-in-trade.jpg",
        "type": "outside"
      }
    ],
    "region": "San Francisco",
    "neighborhood": "Marina",
    "address": {
      "street": "2036 Lombard St",
      "city": "San Francisco",
      "state": "CA",
      "zip": 94123
    },
    "position": {
      "lat": 37.800139,
      "lng": -122.435492
    },
    "phone": "(415) 829-3000",
    "hours": [
      {
        "category": "Bottomless Brunch",
        "starts": "11:00AM",
        "ends": "3:00PM",
        "days": [
          "Saturday",
          "Sunday"
        ]
      }
    ],
    "menu_items": [
      {
        "item": "Bottomless Mimosa",
        "price": 17
      }
    ],
    "full_bar": true,
    "links": {
      "website": "www.stockintradesf.com/",
      "facebook": "www.facebook.com/StockinTradeSF/",
      "yelp": "www.yelp.com/biz/stock-in-trade-san-francisco",
      "openTable": "www.opentable.com/r/stock-in-trade-san-francisco",
      "tripAdvisor": "www.tripadvisor.com/Restaurant_Review-g60713-d4135154-Reviews-Stock_in_Trade-San_Francisco_California.html",
      "zagat": "www.zagat.com/r/stock-in-trade-san-francisco",
      "zomato": "www.zomato.com/san-francisco/stock-in-trade-marina-presidio"
    },
    "description": "Bottomless Brunch starts at 10am on Sundays during NFL Season"
  },
  {
    "id": 8,
    "name": "Hard Knox Cafe",
    "images": [
      {
        "fileName": "san-francisco__hard-knox-cafe.jpg",
        "type": "inside"
      }
    ],
    "region": "San Francisco",
    "neighborhood": "Outer Richmond",
    "address": {
      "street": "2448 Clement St",
      "city": "San Francisco",
      "state": "CA",
      "zip": 94121
    },
    "position": {
      "lat": 37.782091,
      "lng": -122.485729
    },
    "phone": "(415) 752-3770",
    "hours": [
      {
        "category": "Bottomless Brunch",
        "starts": "11:00AM",
        "ends": "3:00PM",
        "days": [
          "Monday",
          "Tuesday",
          "Wednesday",
          "Thursday",
          "Friday"
        ]
      }
    ],
    "menu_items": [
      {
        "item": "Bottomless Mimosa",
        "price": 18
      }
    ],
    "full_bar": false,
    "links": {
      "website": "www.hardknoxcafe.com/",
      "facebook": "www.facebook.com/hardknoxcafe/",
      "yelp": "www.yelp.com/biz/hard-knox-cafe-san-francisco-2",
      "openTable": "www.opentable.com/r/hard-knox-cafe-san-francisco",
      "tripAdvisor": "www.tripadvisor.com/Restaurant_Review-g60713-d1055815-Reviews-Hard_Knox_Cafe-San_Francisco_California.html",
      "zagat": "www.zagat.com/r/hard-knox-cafe-san-francisco",
      "zomato": "www.zomato.com/san-francisco/hard-knox-cafe-outer-richmond"
    }
  },
  {
    "id": 9,
    "name": "The Sycamore",
    "images": [
      {
        "fileName": "san-francisco__the-sycamore.jpg",
        "type": "inside"
      }
    ],
    "region": "San Francisco",
    "neighborhood": "Mission District",
    "address": {
      "street": "2140 Mission St",
      "city": "San Francisco",
      "state": "CA",
      "zip": 94110
    },
    "position": {
      "lat": 37.762763,
      "lng": -122.419799
    },
    "phone": "(415) 252-7704",
    "hours": [
      {
        "category": "Bottomless Brunch",
        "starts": "10:00AM",
        "ends": "3:00PM",
        "days": [
          "Saturday",
          "Sunday"
        ]
      }
    ],
    "menu_items": [
      {
        "item": "Bottomless Mimosa",
        "price": 12
      }
    ],
    "full_bar": false,
    "links": {
      "website": "www.thesycamoresf.com/",
      "facebook": "www.facebook.com/TheSycamore/",
      "yelp": "www.yelp.com/biz/the-sycamore-san-francisco",
      "zomato": "www.zomato.com/san-francisco/sycamore-mission-district"
    },
    "trackBack": "http://www.thesycamoresf.com/brunch-menu.html"
  },
  {
    "id": 10,
    "name": "Cliff House Terrace Room",
    "images": [
      {
        "fileName": "san-francisco__cliff-house.jpg",
        "type": "outside"
      }
    ],
    "region": "San Francisco",
    "neighborhood": "Outer Richmond",
    "address": {
      "street": "1090 Point Lobos",
      "city": "San Francisco",
      "state": "CA",
      "zip": 94121
    },
    "position": {
      "lat": 37.778476,
      "lng": -122.513963
    },
    "phone": "(415) 386-3330",
    "hours": [
      {
        "category": "Bottomless Brunch",
        "starts": "10:00AM",
        "ends": "4:00PM",
        "days": [
          "Sunday"
        ]
      }
    ],
    "menu_items": [
      {
        "item": "Bottomless Food and Drink",
        "price": 55
      }
    ],
    "full_bar": true,
    "links": {
      "website": "www.cliffhouse.com",
      "facebook": "www.facebook.com/CliffHouseSF/",
      "yelp": "www.yelp.com/biz/cliff-house-terrace-room-champagne-brunch-san-francisco",
      "zomato": "www.zomato.com/san-francisco/cliff-house-outer-richmond"
    },
    "description": "Call to make reservations for dining at 10am, noon, or 2pm.",
    "devNotes": "https://sf.eater.com/maps/best-bottomless-brunches-san-francisco"
  },
  {
    "id": 11,
    "name": "The Willows",
    "images": [
      {
        "fileName": "san-francisco__the-willows.jpg",
        "type": "inside"
      }
    ],
    "region": "San Francisco",
    "neighborhood": "SOMA",
    "address": {
      "street": "1582 Folsom St",
      "city": "San Francisco",
      "state": "CA",
      "zip": 94103
    },
    "position": {
      "lat": 37.771153,
      "lng": -122.415165
    },
    "phone": "(415) 529-2039",
    "hours": [
      {
        "category": "Bottomless Brunch",
        "starts": "11:00AM",
        "ends": "3:00PM",
        "days": [
          "Saturday",
          "Sunday"
        ]
      }
    ],
    "menu_items": [
      {
        "item": "Bottomless Bloody Mary",
        "price": 18.75
      },
      {
        "item": "Bottomless Bloody Mary w/ Absolut Vodka",
        "price": 24.75
      }
    ],
    "full_bar": true,
    "links": {
      "website": "www.thewillowssf.com/",
      "facebook": "www.facebook.com/thewillowssf/?rf=1611272505783614",
      "yelp": "www.yelp.com/biz/the-willows-san-francisco",
      "zomato": "www.zomato.com/san-francisco/the-willows-soma"
    },
    "trackBack": "http://www.thewillowssf.com/brunch-menu.html"
  },
  {
    "id": 12,
    "name": "Bisou Bistronomy",
    "images": [
      {
        "fileName": "san-francisco__bisou-bistronomy.jpg",
        "type": "inside"
      }
    ],
    "region": "San Francisco",
    "neighborhood": "Castro",
    "address": {
      "street": "2367 Market St",
      "city": "San Francisco",
      "state": "CA",
      "zip": 94114
    },
    "position": {
      "lat": 37.763007,
      "lng": -122.434324
    },
    "phone": "(415) 556-6200",
    "hours": [
      {
        "category": "Bottomless Brunch",
        "starts": "9:00AM",
        "ends": "3:00PM",
        "days": [
          "Saturday",
          "Sunday"
        ]
      }
    ],
    "menu_items": [
      {
        "item": "Bottomless Mimosa",
        "price": 20
      },
      {
        "item": "Bottomless Bloody Mary",
        "price": 20
      }
    ],
    "full_bar": true,
    "links": {
      "website": "www.bisousf.com/",
      "facebook": "www.facebook.com/bisoubistro/",
      "yelp": "www.yelp.com/biz/bisou-bistronomy-san-francisco",
      "zomato": "www.zomato.com/san-francisco/bisou-castro"
    },
    "canonical": "http://www.bisousf.com/menu/ via http://www.7x7.com/where-to-sip-bottomless-mimosas-in-san-francisco-1787276711.html"
  },
  {
    "id": 13,
    "name": "The Pink Elephant Alibi",
    "images": [
      {
        "fileName": "san-francisco__the-pink-elephant-alibi.jpg",
        "type": "bar"
      }
    ],
    "region": "San Francisco",
    "neighborhood": "SOMA",
    "address": {
      "street": "142 Minna St",
      "city": "San Francisco",
      "state": "CA",
      "zip": 94105
    },
    "position": {
      "lat": 37.786785,
      "lng": -122.400466
    },
    "phone": "(415) 872-9379",
    "hours": [
      {
        "category": "Bottomless Brunch",
        "starts": "11:00AM",
        "ends": "2:00PM",
        "days": [
          "Friday"
        ]
      },
      {
        "category": "Bottomless Brunch",
        "starts": "10:30AM",
        "ends": "4:00PM",
        "days": [
          "Saturday",
          "Sunday"
        ]
      }
    ],
    "menu_items": [
      {
        "item": "Bottomless Mimosa",
        "price": 22.99
      }
    ],
    "full_bar": true,
    "links": {
      "website": "www.thepinkelephantsf.wixsite.com/mysite",
      "facebook": "www.facebook.com/pg/thepinkelephantsf",
      "yelp": "www.yelp.com/biz/the-pink-elephant-alibi-san-francisco-3",
      "zomato": "www.zomato.com/san-francisco/pink-elephant-soma"
    },
    "canonical": "www.thepinkelephantsf.wixsite.com/mysite via http://www.7x7.com/where-to-sip-bottomless-mimosas-in-san-francisco-1787276711.html"
  },
  {
    "id": 14,
    "name": "Barrel Head Brewhouse",
    "images": [
      {
        "fileName": "san-francisco__barrel-head-brewhouse.jpg",
        "type": "inside"
      }
    ],
    "region": "San Francisco",
    "neighborhood": "Western Addition",
    "address": {
      "street": "1785 Fulton St",
      "city": "San Francisco",
      "state": "CA",
      "zip": 94117
    },
    "position": {
      "lat": 37.775711,
      "lng": -122.446054
    },
    "phone": "(415) 416-6989",
    "hours": [
      {
        "category": "Bottomless Brunch",
        "starts": "11:00AM",
        "ends": "2:00PM",
        "days": [
          "Saturday",
          "Sunday"
        ]
      }
    ],
    "menu_items": [
      {
        "item": "Bottomless Mimosa",
        "price": 18
      }
    ],
    "full_bar": true,
    "links": {
      "website": "www.barrelheadsf.com/",
      "facebook": "www.facebook.com/pg/BarrelHeadBrewhouse",
      "yelp": "www.yelp.com/biz/barrel-head-brewhouse-san-francisco-5",
      "zomato": "www.zomato.com/san-francisco/barrel-head-western-addition"
    },
    "canonical": "www.yelp.com/biz/barrel-head-brewhouse-san-francisco-5?q=bottomless"
  },
  {
    "id": 15,
    "name": "Cafe Mystique",
    "images": [
      {
        "fileName": "san-francisco__cafe-mystique.jpg",
        "type": "inside"
      }
    ],
    "region": "San Francisco",
    "neighborhood": "Castro",
    "address": {
      "street": "464 Castro St",
      "city": "San Francisco",
      "state": "CA",
      "zip": 94114
    },
    "position": {
      "lat": 37.761480,
      "lng": -122.435298
    },
    "phone": "(415) 865-9963",
    "hours": [
      {
        "category": "Bottomless Brunch",
        "starts": "9:00AM",
        "ends": "2:00PM",
        "days": [
          "Saturday",
          "Sunday"
        ]
      }
    ],
    "full_bar": false,
    "links": {
      "website": "www.cafe-mystique.com/",
      "facebook": "www.facebook.com/CafeMystiqueSF/",
      "yelp": "www.yelp.com/biz/cafe-mystique-san-francisco",
      "zomato": "www.zomato.com/san-francisco/café-mystique-castro"
    },
    "canonical": "https://www.yelp.com/biz/cafe-mystique-san-francisco?q=bottomless"
  }
]